{
  "type": "FeatureCollection",
  "name": "westbengal_centroids",
  "crs": {
    "type": "name",
    "properties": { "name": "urn:ogc:def:crs:OGC:1.3:CRS84" }
  },
  "features": [
    {
      "type": "Feature",
      "properties": {
        "place": "Darjeeling",
        "speakers": 12000
      },
      "geometry": {
        "type": "Point",
        "coordinates": [88.2627, 27.0360]
      }
    },
    {
      "type": "Feature",
      "properties": {
        "place": "Kurseong",
        "speakers": 9000
      },
      "geometry": {
        "type": "Point",
        "coordinates": [88.2802, 26.8825]
      }
    },
    {
      "type": "Feature",
      "properties": {
        "place": "Kalimpong",
        "speakers": 8500
      },
      "geometry": {
        "type": "Point",
        "coordinates": [88.4650, 27.0683]
      }
    },
    {
      "type": "Feature",
      "properties": {
        "place": "Siliguri",
        "speakers": 7000
      },
      "geometry": {
        "type": "Point",
        "coordinates": [88.3953, 26.7271]
      }
    },
    {
      "type": "Feature",
      "properties": {
        "place": "Jalpaiguri",
        "speakers": 6000
      },
      "geometry": {
        "type": "Point",
        "coordinates": [88.7205, 26.5160]
      }
    },
    {
      "type": "Feature",
      "properties": {
        "place": "Cooch Behar",
        "speakers": 5000
      },
      "geometry": {
        "type": "Point",
        "coordinates": [89.4450, 26.3300]
      }
    },
    {
      "type": "Feature",
      "properties": {
        "place": "Alipurduar",
        "speakers": 4500
      },
      "geometry": {
        "type": "Point",
        "coordinates": [89.5270, 26.4910]
      }
    },
    {
      "type": "Feature",
      "properties": {
        "place": "Kolkata",
        "speakers": 3000
      },
      "geometry": {
        "type": "Point",
        "coordinates": [88.3639, 22.5726]
      }
    }
  ]
}
